[
  {"name":"Los Angeles","region":"California, USA","lat":34.0522,"lon":-118.2437,"priority":true},
  {"name":"Las Vegas","region":"Nevada, USA","lat":36.1699,"lon":-115.1398,"priority":true},
  {"name":"Virginia Beach","region":"Virginia, USA","lat":36.8529,"lon":-75.978,"priority":true},
  {"name":"New York","region":"New York, USA","lat":40.7128,"lon":-74.006,"priority":true},
  {"name":"Fort Wayne","region":"Indiana, USA","lat":41.0793,"lon":-85.1394,"priority":true},
  {"name":"Miami","region":"Florida, USA","lat":25.7617,"lon":-80.1918,"priority":true},

  {"name":"Montgomery","region":"Alabama - State Capital","lat":32.3668,"lon":-86.3},
  {"name":"Juneau","region":"Alaska - State Capital","lat":58.3019,"lon":-134.4197},
  {"name":"Phoenix","region":"Arizona - State Capital","lat":33.4484,"lon":-112.074},
  {"name":"Little Rock","region":"Arkansas - State Capital","lat":34.7465,"lon":-92.2896},
  {"name":"Sacramento","region":"California - State Capital","lat":38.5816,"lon":-121.4944},
  {"name":"Denver","region":"Colorado - State Capital","lat":39.7392,"lon":-104.9903},
  {"name":"Hartford","region":"Connecticut - State Capital","lat":41.7658,"lon":-72.6734},
  {"name":"Dover","region":"Delaware - State Capital","lat":39.1582,"lon":-75.5244},
  {"name":"Tallahassee","region":"Florida - State Capital","lat":30.4383,"lon":-84.2807},
  {"name":"Atlanta","region":"Georgia - State Capital","lat":33.749,"lon":-84.388},
  {"name":"Honolulu","region":"Hawaii - State Capital","lat":21.3069,"lon":-157.8583},
  {"name":"Boise","region":"Idaho - State Capital","lat":43.615,"lon":-116.2023},
  {"name":"Springfield","region":"Illinois - State Capital","lat":39.7817,"lon":-89.6501},
  {"name":"Indianapolis","region":"Indiana - State Capital","lat":39.7684,"lon":-86.1581},
  {"name":"Des Moines","region":"Iowa - State Capital","lat":41.5868,"lon":-93.625},
  {"name":"Topeka","region":"Kansas - State Capital","lat":39.0473,"lon":-95.6752},
  {"name":"Frankfort","region":"Kentucky - State Capital","lat":38.2009,"lon":-84.8733},
  {"name":"Baton Rouge","region":"Louisiana - State Capital","lat":30.4515,"lon":-91.1871},
  {"name":"Augusta","region":"Maine - State Capital","lat":44.3106,"lon":-69.7795},
  {"name":"Annapolis","region":"Maryland - State Capital","lat":38.9784,"lon":-76.4922},
  {"name":"Boston","region":"Massachusetts - State Capital","lat":42.3601,"lon":-71.0589},
  {"name":"Lansing","region":"Michigan - State Capital","lat":42.7325,"lon":-84.5555},
  {"name":"Saint Paul","region":"Minnesota - State Capital","lat":44.9537,"lon":-93.09},
  {"name":"Jackson","region":"Mississippi - State Capital","lat":32.2988,"lon":-90.1848},
  {"name":"Jefferson City","region":"Missouri - State Capital","lat":38.5767,"lon":-92.1735},
  {"name":"Helena","region":"Montana - State Capital","lat":46.5891,"lon":-112.0391},
  {"name":"Lincoln","region":"Nebraska - State Capital","lat":40.8136,"lon":-96.7026},
  {"name":"Carson City","region":"Nevada - State Capital","lat":39.1638,"lon":-119.7674},
  {"name":"Concord","region":"New Hampshire - State Capital","lat":43.2081,"lon":-71.5376},
  {"name":"Trenton","region":"New Jersey - State Capital","lat":40.2171,"lon":-74.7429},
  {"name":"Santa Fe","region":"New Mexico - State Capital","lat":35.687,"lon":-105.9378},
  {"name":"Albany","region":"New York - State Capital","lat":42.6526,"lon":-73.7562},
  {"name":"Raleigh","region":"North Carolina - State Capital","lat":35.7796,"lon":-78.6382},
  {"name":"Bismarck","region":"North Dakota - State Capital","lat":46.8083,"lon":-100.7837},
  {"name":"Columbus","region":"Ohio - State Capital","lat":39.9612,"lon":-82.9988},
  {"name":"Oklahoma City","region":"Oklahoma - State Capital","lat":35.4676,"lon":-97.5164},
  {"name":"Salem","region":"Oregon - State Capital","lat":44.9429,"lon":-123.0351},
  {"name":"Harrisburg","region":"Pennsylvania - State Capital","lat":40.2732,"lon":-76.8867},
  {"name":"Providence","region":"Rhode Island - State Capital","lat":41.824,"lon":-71.4128},
  {"name":"Columbia","region":"South Carolina - State Capital","lat":34.0007,"lon":-81.0348},
  {"name":"Pierre","region":"South Dakota - State Capital","lat":44.3683,"lon":-100.351},
  {"name":"Nashville","region":"Tennessee - State Capital","lat":36.1627,"lon":-86.7816},
  {"name":"Austin","region":"Texas - State Capital","lat":30.2672,"lon":-97.7431},
  {"name":"Salt Lake City","region":"Utah - State Capital","lat":40.7608,"lon":-111.891},
  {"name":"Montpelier","region":"Vermont - State Capital","lat":44.2601,"lon":-72.5754},
  {"name":"Richmond","region":"Virginia - State Capital","lat":37.5407,"lon":-77.436},
  {"name":"Olympia","region":"Washington - State Capital","lat":47.0379,"lon":-122.9007},
  {"name":"Charleston","region":"West Virginia - State Capital","lat":38.3498,"lon":-81.6326},
  {"name":"Madison","region":"Wisconsin - State Capital","lat":43.0731,"lon":-89.4012},
  {"name":"Cheyenne","region":"Wyoming - State Capital","lat":41.14,"lon":-104.8202}
]
